Sensor ID,Sensor name,Total count 2019 by sensor,Total count 2020 by sensor,Change in count,Latitude,Longitude
22,Flinders St-Elizabeth St (East),1337425,445791,-891634,-37.81786445,144.96506823
24,Spencer St-Collins St (North),1098166,210379,-887787,-37.81887962,144.95449198
6,Flinders Street Station Underpass,1040433,190959,-849474,-37.81911704,144.96558256
5,Princes Bridge,958937,156405,-802532,-37.81874249,144.96787656
4,Town Hall (West),1008211,245937,-762274,-37.81487988,144.9660878
